{
    "type": "FeatureCollection",
    "features": [
        {
            "type": "Feature",
            "properties": {
                "label": "Cavallo",
                "id": "l115",
                "group": "ville",
                "value": "1"
            },
            "geometry": {
                "type": "Point",
                "coordinates": [
                    5.5998431,
                    36.7744796
                ]
            }
        },
        {
            "type": "Feature",
            "properties": {
                "label": "Sebdou",
                "id": "l228",
                "group": "ville",
                "value": "1"
            },
            "geometry": {
                "type": "Point",
                "coordinates": [
                    -1.3315305,
                    34.6390648
                ]
            }
        },
        {
            "type": "Feature",
            "properties": {
                "label": "Souk Ahras",
                "id": "l238",
                "group": "ville",
                "value": "2"
            },
            "geometry": {
                "type": "Point",
                "coordinates": [
                    7.9627599,
                    36.2855325
                ]
            }
        },
        {
            "type": "Feature",
            "properties": {
                "label": "Rouached",
                "id": "l282",
                "group": "ville",
                "value": "1"
            },
            "geometry": {
                "type": "Point",
                "coordinates": [
                    6.0374425,
                    36.4581204
                ]
            }
        },
        {
            "type": "Feature",
            "properties": {
                "label": "Nemours (ex département d'Oran)",
                "id": "l198",
                "group": "ville",
                "value": "1"
            },
            "geometry": {
                "type": "Point",
                "coordinates": [
                    -1.8568,
                    35.1023
                ]
            }
        },
        {
            "type": "Feature",
            "properties": {
                "label": "Pélissier",
                "id": "l214",
                "group": "ville",
                "value": "1"
            },
            "geometry": {
                "type": "Point",
                "coordinates": [
                    0.12949,
                    35.95203
                ]
            }
        },
        {
            "type": "Feature",
            "properties": {
                "label": "*Médéa (ex département d'Alger)",
                "id": "l029",
                "group": "ville",
                "value": "2"
            },
            "geometry": {
                "type": "Point",
                "coordinates": [
                    2.75393,
                    36.26417
                ]
            }
        },
        {
            "type": "Feature",
            "properties": {
                "label": "Parmentier",
                "id": "l212",
                "group": "ville",
                "value": "1"
            },
            "geometry": {
                "type": "Point",
                "coordinates": [
                    -0.83034,
                    35.1028
                ]
            }
        },
        {
            "type": "Feature",
            "properties": {
                "label": "Sidi Moussa",
                "id": "l236",
                "group": "ville",
                "value": "3"
            },
            "geometry": {
                "type": "Point",
                "coordinates": [
                    3.0899394,
                    36.6034933
                ]
            }
        },
        {
            "type": "Feature",
            "properties": {
                "label": "Lourmel",
                "id": "l174",
                "group": "ville",
                "value": "1"
            },
            "geometry": {
                "type": "Point",
                "coordinates": [
                    -1.01577,
                    35.52439
                ]
            }
        },
        {
            "type": "Feature",
            "properties": {
                "label": "Pont-de-l'Isser",
                "id": "l217",
                "group": "ville",
                "value": "1"
            },
            "geometry": {
                "type": "Point",
                "coordinates": [
                    -1.2286,
                    35.0747
                ]
            }
        },
        {
            "type": "Feature",
            "properties": {
                "label": "Oran",
                "id": "l305",
                "group": "ville",
                "value": "1"
            },
            "geometry": {
                "type": "Point",
                "coordinates": [
                    -0.63588,
                    35.69906
                ]
            }
        },
        {
            "type": "Feature",
            "properties": {
                "label": "Oued Fodda",
                "id": "l205",
                "group": "ville",
                "value": "1"
            },
            "geometry": {
                "type": "Point",
                "coordinates": [
                    1.5257633,
                    36.1844937
                ]
            }
        },
        {
            "type": "Feature",
            "properties": {
                "label": "Beni Ourtilane",
                "id": "l088",
                "group": "ville",
                "value": "1"
            },
            "geometry": {
                "type": "Point",
                "coordinates": [
                    4.8711309133,
                    36.4422885473
                ]
            }
        },
        {
            "type": "Feature",
            "properties": {
                "label": "Meurad (ex département d'Alger)",
                "id": "l188",
                "group": "ville",
                "value": "3"
            },
            "geometry": {
                "type": "Point",
                "coordinates": [
                    2.4270886,
                    36.475216
                ]
            }
        },
        {
            "type": "Feature",
            "properties": {
                "label": "Bou Tlélis",
                "id": "l105",
                "group": "ville",
                "value": "5"
            },
            "geometry": {
                "type": "Point",
                "coordinates": [
                    -0.8996,
                    35.57272
                ]
            }
        },
        {
            "type": "Feature",
            "properties": {
                "label": "Douaouda",
                "id": "l135",
                "group": "ville",
                "value": "8"
            },
            "geometry": {
                "type": "Point",
                "coordinates": [
                    2.7949739,
                    36.6763653
                ]
            }
        },
        {
            "type": "Feature",
            "properties": {
                "label": "Sidi Aïssa",
                "id": "l232",
                "group": "ville",
                "value": "2"
            },
            "geometry": {
                "type": "Point",
                "coordinates": [
                    3.775044,
                    35.883659
                ]
            }
        },
        {
            "type": "Feature",
            "properties": {
                "label": "Colomb Béchar",
                "id": "l126",
                "group": "ville",
                "value": "2"
            },
            "geometry": {
                "type": "Point",
                "coordinates": [
                    -2.21667,
                    31.61667
                ]
            }
        },
        {
            "type": "Feature",
            "properties": {
                "label": "Saint-Denis-du-Sig",
                "id": "l226",
                "group": "ville",
                "value": "1"
            },
            "geometry": {
                "type": "Point",
                "coordinates": [
                    -0.1937,
                    35.5283
                ]
            }
        },
        {
            "type": "Feature",
            "properties": {
                "label": "Aïn el Turck",
                "id": "l059",
                "group": "ville",
                "value": "2"
            },
            "geometry": {
                "type": "Point",
                "coordinates": [
                    -0.7693,
                    35.74381
                ]
            }
        },
        {
            "type": "Feature",
            "properties": {
                "label": "Dra El Mizan",
                "id": "l137",
                "group": "ville",
                "value": "2"
            },
            "geometry": {
                "type": "Point",
                "coordinates": [
                    3.8334,
                    36.53628
                ]
            }
        },
        {
            "type": "Feature",
            "properties": {
                "label": "Turennes (ex département d'Oran)",
                "id": "l285",
                "group": "ville",
                "value": "1"
            },
            "geometry": {
                "type": "Point",
                "coordinates": [
                    -1.5283,
                    34.8274
                ]
            }
        },
        {
            "type": "Feature",
            "properties": {
                "label": "Fort-Flatters",
                "id": "l148",
                "group": "ville",
                "value": "1"
            },
            "geometry": {
                "type": "Point",
                "coordinates": [
                    6.81856,
                    28.12024
                ]
            }
        },
        {
            "type": "Feature",
            "properties": {
                "label": "Guyotville (ex département d'Alger)",
                "id": "l294",
                "group": "ville",
                "value": "1"
            },
            "geometry": {
                "type": "Point",
                "coordinates": [
                    2.92185,
                    36.80277
                ]
            }
        },
        {
            "type": "Feature",
            "properties": {
                "label": "*Orléansville",
                "id": "l035",
                "group": "ville",
                "value": "2"
            },
            "geometry": {
                "type": "Point",
                "coordinates": [
                    1.33452,
                    36.16525
                ]
            }
        },
        {
            "type": "Feature",
            "properties": {
                "label": "Kerrata",
                "id": "l165",
                "group": "ville",
                "value": "1"
            },
            "geometry": {
                "type": "Point",
                "coordinates": [
                    5.27802,
                    36.49349
                ]
            }
        },
        {
            "type": "Feature",
            "properties": {
                "label": "Ain Larbaa",
                "id": "l064",
                "group": "ville",
                "value": "1"
            },
            "geometry": {
                "type": "Point",
                "coordinates": [
                    1.96968,
                    36.49851
                ]
            }
        },
        {
            "type": "Feature",
            "properties": {
                "label": "*Parmentier",
                "id": "l036",
                "group": "ville",
                "value": "1"
            },
            "geometry": {
                "type": "Point",
                "coordinates": [
                    -0.83034,
                    35.1028
                ]
            }
        },
        {
            "type": "Feature",
            "properties": {
                "label": "Centre international de la Croix-Rouge",
                "id": "A003",
                "group": "archives",
                "value": "1"
            },
            "geometry": {
                "type": "Point",
                "coordinates": [
                    2.3643561811,
                    48.9481947625
                ]
            }
        },
        {
            "type": "Feature",
            "properties": {
                "label": "Duperré",
                "id": "l277",
                "group": "ville",
                "value": "1"
            },
            "geometry": {
                "type": "Point",
                "coordinates": [
                    1.9679,
                    36.26405
                ]
            }
        },
        {
            "type": "Feature",
            "properties": {
                "label": "*Inkermann",
                "id": "l024",
                "group": "ville",
                "value": "1"
            },
            "geometry": {
                "type": "Point",
                "coordinates": [
                    0.91896,
                    35.96124
                ]
            }
        },
        {
            "type": "Feature",
            "properties": {
                "label": "*Alger",
                "id": "l004",
                "group": "ville",
                "value": "40"
            },
            "geometry": {
                "type": "Point",
                "coordinates": [
                    3.08746,
                    36.73225
                ]
            }
        },
        {
            "type": "Feature",
            "properties": {
                "label": "*Mostaganem",
                "id": "l032",
                "group": "ville",
                "value": "2"
            },
            "geometry": {
                "type": "Point",
                "coordinates": [
                    0.08918,
                    35.93115
                ]
            }
        },
        {
            "type": "Feature",
            "properties": {
                "label": "Ghomriane (douar)",
                "id": "l152",
                "group": "ville",
                "value": "1"
            },
            "geometry": {
                "type": "Point",
                "coordinates": [
                    6.45233,
                    36.9469
                ]
            }
        },
        {
            "type": "Feature",
            "properties": {
                "label": "Jemmapes",
                "id": "l164",
                "group": "ville",
                "value": "2"
            },
            "geometry": {
                "type": "Point",
                "coordinates": [
                    7.10528,
                    36.73944
                ]
            }
        },
        {
            "type": "Feature",
            "properties": {
                "label": "*Rivet",
                "id": "l266",
                "group": "ville",
                "value": "1"
            },
            "geometry": {
                "type": "Point",
                "coordinates": [
                    3.2239,
                    36.6204
                ]
            }
        },
        {
            "type": "Feature",
            "properties": {
                "label": "Aïn Fekka",
                "id": "l061",
                "group": "ville",
                "value": "5"
            },
            "geometry": {
                "type": "Point",
                "coordinates": [
                    3.5802728,
                    35.4267651
                ]
            }
        },
        {
            "type": "Feature",
            "properties": {
                "label": "Tala Ifacene",
                "id": "l243",
                "group": "ville",
                "value": "1"
            },
            "geometry": {
                "type": "Point",
                "coordinates": [
                    5.0167,
                    36.3667
                ]
            }
        },
        {
            "type": "Feature",
            "properties": {
                "label": "Akbou",
                "id": "l070",
                "group": "ville",
                "value": "3"
            },
            "geometry": {
                "type": "Point",
                "coordinates": [
                    4.5386981,
                    36.4573275
                ]
            }
        },
        {
            "type": "Feature",
            "properties": {
                "label": "Médéa (ex département d'Alger)",
                "id": "l184",
                "group": "ville",
                "value": "19"
            },
            "geometry": {
                "type": "Point",
                "coordinates": [
                    2.75393,
                    36.26417
                ]
            }
        },
        {
            "type": "Feature",
            "properties": {
                "label": "Aït Addad - commune de Bechinoune",
                "id": "l069",
                "group": "ville",
                "value": "1"
            },
            "geometry": {
                "type": "Point",
                "coordinates": [
                    3.58417,
                    36.75361
                ]
            }
        },
        {
            "type": "Feature",
            "properties": {
                "label": "Mongorno",
                "id": "l191",
                "group": "ville",
                "value": "2"
            },
            "geometry": {
                "type": "Point",
                "coordinates": [
                    2.8365,
                    36.0707
                ]
            }
        },
        {
            "type": "Feature",
            "properties": {
                "label": "Oued Seffioun",
                "id": "l208",
                "group": "ville",
                "value": "1"
            },
            "geometry": {
                "type": "Point",
                "coordinates": [
                    -0.358688,
                    35.0667287
                ]
            }
        },
        {
            "type": "Feature",
            "properties": {
                "label": "Teniet el Had (ex département d'Alger)",
                "id": "l329",
                "group": "ville",
                "value": "1"
            },
            "geometry": {
                "type": "Point",
                "coordinates": [
                    2.02806,
                    35.87111
                ]
            }
        },
        {
            "type": "Feature",
            "properties": {
                "label": "Mellila Auribeau",
                "id": "l186",
                "group": "ville",
                "value": "1"
            },
            "geometry": {
                "type": "Point",
                "coordinates": [
                    7.2175,
                    36.73139
                ]
            }
        },
        {
            "type": "Feature",
            "properties": {
                "label": "Trézel",
                "id": "l253",
                "group": "ville",
                "value": "4"
            },
            "geometry": {
                "type": "Point",
                "coordinates": [
                    1.4961,
                    35.1857
                ]
            }
        },
        {
            "type": "Feature",
            "properties": {
                "label": "Bône",
                "id": "l098",
                "group": "ville",
                "value": "9"
            },
            "geometry": {
                "type": "Point",
                "coordinates": [
                    7.76667,
                    36.9
                ]
            }
        },
        {
            "type": "Feature",
            "properties": {
                "label": "Tebessa",
                "id": "l244",
                "group": "ville",
                "value": "1"
            },
            "geometry": {
                "type": "Point",
                "coordinates": [
                    8.1242,
                    35.4042
                ]
            }
        },
        {
            "type": "Feature",
            "properties": {
                "label": "*Saïda",
                "id": "l041",
                "group": "ville",
                "value": "1"
            },
            "geometry": {
                "type": "Point",
                "coordinates": [
                    0.15171,
                    34.83033
                ]
            }
        },
        {
            "type": "Feature",
            "properties": {
                "label": "Relizane",
                "id": "l218",
                "group": "ville",
                "value": "6"
            },
            "geometry": {
                "type": "Point",
                "coordinates": [
                    0.556,
                    35.7373
                ]
            }
        },
        {
            "type": "Feature",
            "properties": {
                "label": "El Biar",
                "id": "l141",
                "group": "ville",
                "value": "3"
            },
            "geometry": {
                "type": "Point",
                "coordinates": [
                    3.0318435,
                    36.7696007
                ]
            }
        },
        {
            "type": "Feature",
            "properties": {
                "label": "*El Achour",
                "id": "l019",
                "group": "ville",
                "value": "1"
            },
            "geometry": {
                "type": "Point",
                "coordinates": [
                    2.988525,
                    36.7357259
                ]
            }
        },
        {
            "type": "Feature",
            "properties": {
                "label": "*Affreville",
                "id": "l001",
                "group": "ville",
                "value": "1"
            },
            "geometry": {
                "type": "Point",
                "coordinates": [
                    2.22015,
                    36.26104
                ]
            }
        },
        {
            "type": "Feature",
            "properties": {
                "label": "djidelli",
                "id": "l133",
                "group": "ville",
                "value": "1"
            },
            "geometry": {
                "type": "Point",
                "coordinates": [
                    5.76352,
                    36.821
                ]
            }
        },
        {
            "type": "Feature",
            "properties": {
                "label": "Bordj Bou Arreridj",
                "id": "l099",
                "group": "ville",
                "value": "2"
            },
            "geometry": {
                "type": "Point",
                "coordinates": [
                    4.7593743,
                    36.07183
                ]
            }
        },
        {
            "type": "Feature",
            "properties": {
                "label": "*Oran",
                "id": "l034",
                "group": "ville",
                "value": "12"
            },
            "geometry": {
                "type": "Point",
                "coordinates": [
                    -0.63588,
                    35.69906
                ]
            }
        },
        {
            "type": "Feature",
            "properties": {
                "label": "Tiaret (ex département d'Oran)",
                "id": "l248",
                "group": "ville",
                "value": "8"
            },
            "geometry": {
                "type": "Point",
                "coordinates": [
                    1.322746,
                    35.3700219
                ]
            }
        },
        {
            "type": "Feature",
            "properties": {
                "label": "Crescia",
                "id": "l129",
                "group": "ville",
                "value": "2"
            },
            "geometry": {
                "type": "Point",
                "coordinates": [
                    2.98213,
                    36.6772
                ]
            }
        },
        {
            "type": "Feature",
            "properties": {
                "label": "Djelfa",
                "id": "l132",
                "group": "ville",
                "value": "4"
            },
            "geometry": {
                "type": "Point",
                "coordinates": [
                    3.2488908,
                    34.668632
                ]
            }
        },
        {
            "type": "Feature",
            "properties": {
                "label": "Maréchal-Foch",
                "id": "l180",
                "group": "ville",
                "value": "2"
            },
            "geometry": {
                "type": "Point",
                "coordinates": [
                    3.37127,
                    36.63773
                ]
            }
        },
        {
            "type": "Feature",
            "properties": {
                "label": "Birkadem",
                "id": "l092",
                "group": "ville",
                "value": "4"
            },
            "geometry": {
                "type": "Point",
                "coordinates": [
                    3.05002,
                    36.71499
                ]
            }
        },
        {
            "type": "Feature",
            "properties": {
                "label": "Oued Seguin (douar) - commune mixte de Châteaudun-du-Rhumel  (ex département de Constantine)",
                "id": "l209",
                "group": "ville",
                "value": "1"
            },
            "geometry": {
                "type": "Point",
                "coordinates": [
                    6.3872,
                    36.1831
                ]
            }
        },
        {
            "type": "Feature",
            "properties": {
                "label": "Baba Ali",
                "id": "l079",
                "group": "ville",
                "value": "10"
            },
            "geometry": {
                "type": "Point",
                "coordinates": [
                    3.05527,
                    36.66228
                ]
            }
        },
        {
            "type": "Feature",
            "properties": {
                "label": "Maison-Blanche",
                "id": "l178",
                "group": "ville",
                "value": "10"
            },
            "geometry": {
                "type": "Point",
                "coordinates": [
                    3.2148185,
                    36.7145399
                ]
            }
        },
        {
            "type": "Feature",
            "properties": {
                "label": "Bourbika",
                "id": "l110",
                "group": "ville",
                "value": "2"
            },
            "geometry": {
                "type": "Point",
                "coordinates": [
                    2.4756848,
                    36.4948714
                ]
            }
        },
        {
            "type": "Feature",
            "properties": {
                "label": "*Tafaraoui",
                "id": "l048",
                "group": "ville",
                "value": "1"
            },
            "geometry": {
                "type": "Point",
                "coordinates": [
                    -0.52728,
                    35.48542
                ]
            }
        },
        {
            "type": "Feature",
            "properties": {
                "label": "Châteaudun-du-Rhummel",
                "id": "l120",
                "group": "ville",
                "value": "2"
            },
            "geometry": {
                "type": "Point",
                "coordinates": [
                    6.16651,
                    36.16286
                ]
            }
        },
        {
            "type": "Feature",
            "properties": {
                "label": "*Cassaigne",
                "id": "l307",
                "group": "ville",
                "value": "1"
            },
            "geometry": {
                "type": "Point",
                "coordinates": [
                    0.4190568,
                    36.100133
                ]
            }
        },
        {
            "type": "Feature",
            "properties": {
                "label": "Centre des archives diplomatiques dee Nantes",
                "id": "A002",
                "group": "archives",
                "value": "29"
            },
            "geometry": {
                "type": "Point",
                "coordinates": [
                    -1.5289760749,
                    47.2284097998
                ]
            }
        },
        {
            "type": "Feature",
            "properties": {
                "label": "Fort-National",
                "id": "l149",
                "group": "ville",
                "value": "1"
            },
            "geometry": {
                "type": "Point",
                "coordinates": [
                    4.19864,
                    36.63112
                ]
            }
        },
        {
            "type": "Feature",
            "properties": {
                "label": "*Hussein Dey",
                "id": "l023",
                "group": "ville",
                "value": "2"
            },
            "geometry": {
                "type": "Point",
                "coordinates": [
                    3.095426,
                    36.7411629
                ]
            }
        },
        {
            "type": "Feature",
            "properties": {
                "label": "Ouled el Alleug (ex département d'alger)",
                "id": "l210",
                "group": "ville",
                "value": "7"
            },
            "geometry": {
                "type": "Point",
                "coordinates": [
                    2.786731,
                    36.555139
                ]
            }
        },
        {
            "type": "Feature",
            "properties": {
                "label": "Hussein Dey",
                "id": "l162",
                "group": "ville",
                "value": "6"
            },
            "geometry": {
                "type": "Point",
                "coordinates": [
                    3.095426,
                    36.7411629
                ]
            }
        },
        {
            "type": "Feature",
            "properties": {
                "label": "*Tiaret (ex département d'Oran)",
                "id": "l049",
                "group": "ville",
                "value": "1"
            },
            "geometry": {
                "type": "Point",
                "coordinates": [
                    1.322746,
                    35.3700219
                ]
            }
        },
        {
            "type": "Feature",
            "properties": {
                "label": "Saint-Ferdinand",
                "id": "l227",
                "group": "ville",
                "value": "2"
            },
            "geometry": {
                "type": "Point",
                "coordinates": [
                    2.91258,
                    36.70828
                ]
            }
        },
        {
            "type": "Feature",
            "properties": {
                "label": "Zitoun (douar) - commune d'Oum el Bouaghi",
                "id": "l260",
                "group": "ville",
                "value": "1"
            },
            "geometry": {
                "type": "Point",
                "coordinates": [
                    6.438371447,
                    37.0265749375
                ]
            }
        },
        {
            "type": "Feature",
            "properties": {
                "label": "Aïn Sidi Cherif",
                "id": "l067",
                "group": "ville",
                "value": "2"
            },
            "geometry": {
                "type": "Point",
                "coordinates": [
                    0.1264578,
                    35.833527
                ]
            }
        },
        {
            "type": "Feature",
            "properties": {
                "label": "Souma",
                "id": "l239",
                "group": "ville",
                "value": "1"
            },
            "geometry": {
                "type": "Point",
                "coordinates": [
                    2.90528,
                    36.51833
                ]
            }
        },
        {
            "type": "Feature",
            "properties": {
                "label": "*Saint-Antoine",
                "id": "l267",
                "group": "ville",
                "value": "2"
            },
            "geometry": {
                "type": "Point",
                "coordinates": [
                    6.8829,
                    36.831
                ]
            }
        },
        {
            "type": "Feature",
            "properties": {
                "label": "Tiaret (ex département d'Oran)",
                "id": "l330",
                "group": "ville",
                "value": "1"
            },
            "geometry": {
                "type": "Point",
                "coordinates": [
                    1.322746,
                    35.3700219
                ]
            }
        },
        {
            "type": "Feature",
            "properties": {
                "label": "Calle (La)",
                "id": "l113",
                "group": "ville",
                "value": "3"
            },
            "geometry": {
                "type": "Point",
                "coordinates": [
                    8.44333,
                    36.89556
                ]
            }
        },
        {
            "type": "Feature",
            "properties": {
                "label": "*Chebli",
                "id": "l016",
                "group": "ville",
                "value": "1"
            },
            "geometry": {
                "type": "Point",
                "coordinates": [
                    3.0078872,
                    36.5771437
                ]
            }
        },
        {
            "type": "Feature",
            "properties": {
                "label": "Oued el Aleug",
                "id": "l204",
                "group": "ville",
                "value": "1"
            },
            "geometry": {
                "type": "Point",
                "coordinates": [
                    8.28601,
                    34.7394
                ]
            }
        },
        {
            "type": "Feature",
            "properties": {
                "label": "*Vialar",
                "id": "l052",
                "group": "ville",
                "value": "5"
            },
            "geometry": {
                "type": "Point",
                "coordinates": [
                    1.81081,
                    35.60722
                ]
            }
        },
        {
            "type": "Feature",
            "properties": {
                "label": "Rouget de l'Isle",
                "id": "l222",
                "group": "ville",
                "value": "1"
            },
            "geometry": {
                "type": "Point",
                "coordinates": [
                    6.3908,
                    35.8971
                ]
            }
        },
        {
            "type": "Feature",
            "properties": {
                "label": "Beghaoun",
                "id": "l083",
                "group": "ville",
                "value": "2"
            },
            "geometry": {
                "type": "Point",
                "coordinates": [
                    -1.8790404,
                    35.059671
                ]
            }
        },
        {
            "type": "Feature",
            "properties": {
                "label": "Lamoricière",
                "id": "l171",
                "group": "ville",
                "value": "1"
            },
            "geometry": {
                "type": "Point",
                "coordinates": [
                    -1.03394,
                    34.90472
                ]
            }
        },
        {
            "type": "Feature",
            "properties": {
                "label": "Guelma (ex département de Constantine)",
                "id": "l293",
                "group": "ville",
                "value": "1"
            },
            "geometry": {
                "type": "Point",
                "coordinates": [
                    7.42608,
                    36.46214
                ]
            }
        },
        {
            "type": "Feature",
            "properties": {
                "label": "Châteaudun-du-Rhummel",
                "id": "l320",
                "group": "ville",
                "value": "1"
            },
            "geometry": {
                "type": "Point",
                "coordinates": [
                    6.16651,
                    36.16286
                ]
            }
        },
        {
            "type": "Feature",
            "properties": {
                "label": "Mouzaïaville",
                "id": "l196",
                "group": "ville",
                "value": "1"
            },
            "geometry": {
                "type": "Point",
                "coordinates": [
                    2.68991,
                    36.46695
                ]
            }
        },
        {
            "type": "Feature",
            "properties": {
                "label": "Hamman Bou Hadjar",
                "id": "l157",
                "group": "ville",
                "value": "2"
            },
            "geometry": {
                "type": "Point",
                "coordinates": [
                    -0.96778,
                    35.37889
                ]
            }
        },
        {
            "type": "Feature",
            "properties": {
                "label": "Bizot",
                "id": "l095",
                "group": "ville",
                "value": "2"
            },
            "geometry": {
                "type": "Point",
                "coordinates": [
                    6.63639,
                    36.4525
                ]
            }
        },
        {
            "type": "Feature",
            "properties": {
                "label": "Dellys (ex département d'Alger)",
                "id": "l131",
                "group": "ville",
                "value": "1"
            },
            "geometry": {
                "type": "Point",
                "coordinates": [
                    3.9137201,
                    36.9155595
                ]
            }
        },
        {
            "type": "Feature",
            "properties": {
                "label": "*Cheurfa-Khara",
                "id": "l261",
                "group": "ville",
                "value": "1"
            },
            "geometry": {
                "type": "Point",
                "coordinates": [
                    4.2986,
                    36.3807
                ]
            }
        },
        {
            "type": "Feature",
            "properties": {
                "label": "Bugeaud",
                "id": "l317",
                "group": "ville",
                "value": "1"
            },
            "geometry": {
                "type": "Point",
                "coordinates": [
                    7.6772,
                    36.9113
                ]
            }
        },
        {
            "type": "Feature",
            "properties": {
                "label": "*Blida",
                "id": "l010",
                "group": "ville",
                "value": "1"
            },
            "geometry": {
                "type": "Point",
                "coordinates": [
                    2.8043767,
                    36.478974
                ]
            }
        },
        {
            "type": "Feature",
            "properties": {
                "label": "Alger",
                "id": "l289",
                "group": "ville",
                "value": "1"
            },
            "geometry": {
                "type": "Point",
                "coordinates": [
                    3.08746,
                    36.73225
                ]
            }
        },
        {
            "type": "Feature",
            "properties": {
                "label": "Médéa (ex département d'Alger)",
                "id": "l297",
                "group": "ville",
                "value": "2"
            },
            "geometry": {
                "type": "Point",
                "coordinates": [
                    2.75393,
                    36.26417
                ]
            }
        },
        {
            "type": "Feature",
            "properties": {
                "label": "Tizi Ouzou (ex département d'Alger)",
                "id": "l302",
                "group": "ville",
                "value": "2"
            },
            "geometry": {
                "type": "Point",
                "coordinates": [
                    4.0457099,
                    36.7146024
                ]
            }
        },
        {
            "type": "Feature",
            "properties": {
                "label": "Ghardaïa",
                "id": "l151",
                "group": "ville",
                "value": "3"
            },
            "geometry": {
                "type": "Point",
                "coordinates": [
                    3.6830477,
                    32.5025698
                ]
            }
        },
        {
            "type": "Feature",
            "properties": {
                "label": "Champlain",
                "id": "l116",
                "group": "ville",
                "value": "1"
            },
            "geometry": {
                "type": "Point",
                "coordinates": [
                    3.03083,
                    36.26458
                ]
            }
        },
        {
            "type": "Feature",
            "properties": {
                "label": "Aïn Abid",
                "id": "l056",
                "group": "ville",
                "value": "1"
            },
            "geometry": {
                "type": "Point",
                "coordinates": [
                    6.9438072,
                    36.2322937
                ]
            }
        },
        {
            "type": "Feature",
            "properties": {
                "label": "Akfadou",
                "id": "l071",
                "group": "ville",
                "value": "1"
            },
            "geometry": {
                "type": "Point",
                "coordinates": [
                    4.613891,
                    36.6306125
                ]
            }
        },
        {
            "type": "Feature",
            "properties": {
                "label": "El Goléa",
                "id": "l142",
                "group": "ville",
                "value": "1"
            },
            "geometry": {
                "type": "Point",
                "coordinates": [
                    2.88417,
                    30.57556
                ]
            }
        },
        {
            "type": "Feature",
            "properties": {
                "label": "Baraki",
                "id": "l081",
                "group": "ville",
                "value": "11"
            },
            "geometry": {
                "type": "Point",
                "coordinates": [
                    3.09606,
                    36.66655
                ]
            }
        },
        {
            "type": "Feature",
            "properties": {
                "label": "Philippeville",
                "id": "l216",
                "group": "ville",
                "value": "3"
            },
            "geometry": {
                "type": "Point",
                "coordinates": [
                    6.9106,
                    36.8686
                ]
            }
        },
        {
            "type": "Feature",
            "properties": {
                "label": "Sétif",
                "id": "l301",
                "group": "ville",
                "value": "4"
            },
            "geometry": {
                "type": "Point",
                "coordinates": [
                    5.4086808,
                    36.1853616
                ]
            }
        },
        {
            "type": "Feature",
            "properties": {
                "label": "Cap Matifou",
                "id": "l318",
                "group": "ville",
                "value": "1"
            },
            "geometry": {
                "type": "Point",
                "coordinates": [
                    3.2231,
                    36.81191
                ]
            }
        },
        {
            "type": "Feature",
            "properties": {
                "label": "Miliana",
                "id": "l190",
                "group": "ville",
                "value": "3"
            },
            "geometry": {
                "type": "Point",
                "coordinates": [
                    2.2228946,
                    36.3060349
                ]
            }
        },
        {
            "type": "Feature",
            "properties": {
                "label": "Sidi Bel Abbès",
                "id": "l234",
                "group": "ville",
                "value": "28"
            },
            "geometry": {
                "type": "Point",
                "coordinates": [
                    -0.63085,
                    35.18994
                ]
            }
        },
        {
            "type": "Feature",
            "properties": {
                "label": "Charrier",
                "id": "l319",
                "group": "ville",
                "value": "1"
            },
            "geometry": {
                "type": "Point",
                "coordinates": [
                    0.05865,
                    35.03007
                ]
            }
        },
        {
            "type": "Feature",
            "properties": {
                "label": "Oran",
                "id": "l323",
                "group": "ville",
                "value": "7"
            },
            "geometry": {
                "type": "Point",
                "coordinates": [
                    -0.63588,
                    35.69906
                ]
            }
        },
        {
            "type": "Feature",
            "properties": {
                "label": "Inkermann",
                "id": "l163",
                "group": "ville",
                "value": "2"
            },
            "geometry": {
                "type": "Point",
                "coordinates": [
                    0.91896,
                    35.96124
                ]
            }
        },
        {
            "type": "Feature",
            "properties": {
                "label": "Warnier",
                "id": "l258",
                "group": "ville",
                "value": "1"
            },
            "geometry": {
                "type": "Point",
                "coordinates": [
                    1.2381,
                    36.2336
                ]
            }
        },
        {
            "type": "Feature",
            "properties": {
                "label": "Champlain",
                "id": "l273",
                "group": "ville",
                "value": "4"
            },
            "geometry": {
                "type": "Point",
                "coordinates": [
                    3.03083,
                    36.26458
                ]
            }
        },
        {
            "type": "Feature",
            "properties": {
                "label": "Guelma (ex département de Constantine)",
                "id": "l154",
                "group": "ville",
                "value": "2"
            },
            "geometry": {
                "type": "Point",
                "coordinates": [
                    7.42608,
                    36.46214
                ]
            }
        },
        {
            "type": "Feature",
            "properties": {
                "label": "Bougie",
                "id": "l108",
                "group": "ville",
                "value": "4"
            },
            "geometry": {
                "type": "Point",
                "coordinates": [
                    5.08433,
                    36.75587
                ]
            }
        },
        {
            "type": "Feature",
            "properties": {
                "label": "Gué",
                "id": "l153",
                "group": "ville",
                "value": "2"
            },
            "geometry": {
                "type": "Point",
                "coordinates": [
                    3.0954,
                    36.69692
                ]
            }
        },
        {
            "type": "Feature",
            "properties": {
                "label": "Marengo",
                "id": "l181",
                "group": "ville",
                "value": "5"
            },
            "geometry": {
                "type": "Point",
                "coordinates": [
                    2.41382,
                    36.51257
                ]
            }
        },
        {
            "type": "Feature",
            "properties": {
                "label": "Koléa (ex département d'Alger)",
                "id": "l166",
                "group": "ville",
                "value": "6"
            },
            "geometry": {
                "type": "Point",
                "coordinates": [
                    2.7631546,
                    36.6418829
                ]
            }
        },
        {
            "type": "Feature",
            "properties": {
                "label": "Maison-Carrée",
                "id": "l179",
                "group": "ville",
                "value": "2"
            },
            "geometry": {
                "type": "Point",
                "coordinates": [
                    3.145,
                    36.72028
                ]
            }
        },
        {
            "type": "Feature",
            "properties": {
                "label": "Hamimat Canrobert",
                "id": "l156",
                "group": "ville",
                "value": "1"
            },
            "geometry": {
                "type": "Point",
                "coordinates": [
                    7.11353,
                    35.87541
                ]
            }
        },
        {
            "type": "Feature",
            "properties": {
                "label": "*Pérrégaux",
                "id": "l039",
                "group": "ville",
                "value": "3"
            },
            "geometry": {
                "type": "Point",
                "coordinates": [
                    0.06861,
                    35.58861
                ]
            }
        },
        {
            "type": "Feature",
            "properties": {
                "label": "Ameur el Aïn",
                "id": "l073",
                "group": "ville",
                "value": "5"
            },
            "geometry": {
                "type": "Point",
                "coordinates": [
                    2.56593,
                    36.47688
                ]
            }
        },
        {
            "type": "Feature",
            "properties": {
                "label": "Aïn Bessem",
                "id": "l057",
                "group": "ville",
                "value": "1"
            },
            "geometry": {
                "type": "Point",
                "coordinates": [
                    3.67319,
                    36.29333
                ]
            }
        },
        {
            "type": "Feature",
            "properties": {
                "label": "Cherchell",
                "id": "l274",
                "group": "ville",
                "value": "1"
            },
            "geometry": {
                "type": "Point",
                "coordinates": [
                    2.1821145,
                    36.6036858
                ]
            }
        },
        {
            "type": "Feature",
            "properties": {
                "label": "*Raz el Aïn",
                "id": "l040",
                "group": "ville",
                "value": "1"
            },
            "geometry": {
                "type": "Point",
                "coordinates": [
                    -0.6574327,
                    35.6969201
                ]
            }
        },
        {
            "type": "Feature",
            "properties": {
                "label": "Mostaganem",
                "id": "l194",
                "group": "ville",
                "value": "21"
            },
            "geometry": {
                "type": "Point",
                "coordinates": [
                    0.08918,
                    35.93115
                ]
            }
        },
        {
            "type": "Feature",
            "properties": {
                "label": "Hassana",
                "id": "l158",
                "group": "ville",
                "value": "1"
            },
            "geometry": {
                "type": "Point",
                "coordinates": [
                    -0.9868723,
                    35.2778637
                ]
            }
        },
        {
            "type": "Feature",
            "properties": {
                "label": "Teniet el Had (ex département d'Alger)",
                "id": "l247",
                "group": "ville",
                "value": "3"
            },
            "geometry": {
                "type": "Point",
                "coordinates": [
                    2.02806,
                    35.87111
                ]
            }
        },
        {
            "type": "Feature",
            "properties": {
                "label": "M'Sila",
                "id": "l176",
                "group": "ville",
                "value": "2"
            },
            "geometry": {
                "type": "Point",
                "coordinates": [
                    4.5314917,
                    35.7132288
                ]
            }
        },
        {
            "type": "Feature",
            "properties": {
                "label": "Trembles (les)",
                "id": "l252",
                "group": "ville",
                "value": "1"
            },
            "geometry": {
                "type": "Point",
                "coordinates": [
                    3.6472,
                    36.2358
                ]
            }
        },
        {
            "type": "Feature",
            "properties": {
                "label": "Trumelet",
                "id": "l254",
                "group": "ville",
                "value": "1"
            },
            "geometry": {
                "type": "Point",
                "coordinates": [
                    1.4754,
                    35.4169
                ]
            }
        },
        {
            "type": "Feature",
            "properties": {
                "label": "Boghari (ex département d'Alger)",
                "id": "l097",
                "group": "ville",
                "value": "1"
            },
            "geometry": {
                "type": "Point",
                "coordinates": [
                    2.74905,
                    35.88889
                ]
            }
        },
        {
            "type": "Feature",
            "properties": {
                "label": "Arba (L')",
                "id": "l075",
                "group": "ville",
                "value": "4"
            },
            "geometry": {
                "type": "Point",
                "coordinates": [
                    3.15434,
                    36.56471
                ]
            }
        },
        {
            "type": "Feature",
            "properties": {
                "label": "Honaine",
                "id": "l161",
                "group": "ville",
                "value": "1"
            },
            "geometry": {
                "type": "Point",
                "coordinates": [
                    -1.6140845899,
                    35.168069558
                ]
            }
        },
        {
            "type": "Feature",
            "properties": {
                "label": "Tlemcen",
                "id": "l303",
                "group": "ville",
                "value": "1"
            },
            "geometry": {
                "type": "Point",
                "coordinates": [
                    -1.315,
                    34.87833
                ]
            }
        },
        {
            "type": "Feature",
            "properties": {
                "label": "Ouargla (ex département de Constantine)",
                "id": "l202",
                "group": "ville",
                "value": "2"
            },
            "geometry": {
                "type": "Point",
                "coordinates": [
                    5.32502,
                    31.94932
                ]
            }
        },
        {
            "type": "Feature",
            "properties": {
                "label": "*M'Sila",
                "id": "l286",
                "group": "ville",
                "value": "1"
            },
            "geometry": {
                "type": "Point",
                "coordinates": [
                    4.5314917,
                    35.7132288
                ]
            }
        },
        {
            "type": "Feature",
            "properties": {
                "label": "Ouarsenis",
                "id": "l203",
                "group": "ville",
                "value": "1"
            },
            "geometry": {
                "type": "Point",
                "coordinates": [
                    1.622,
                    35.8671
                ]
            }
        },
        {
            "type": "Feature",
            "properties": {
                "label": "Bellevue",
                "id": "l084",
                "group": "ville",
                "value": "1"
            },
            "geometry": {
                "type": "Point",
                "coordinates": [
                    2.96809,
                    36.72827
                ]
            }
        },
        {
            "type": "Feature",
            "properties": {
                "label": "*oasis saharienne",
                "id": "l033",
                "group": "ville",
                "value": "1"
            },
            "geometry": {
                "type": "Point",
                "coordinates": [
                    1.7468388699,
                    26.1766378722
                ]
            }
        },
        {
            "type": "Feature",
            "properties": {
                "label": "Aïn el Arba (ex département d'Oran)",
                "id": "l058",
                "group": "ville",
                "value": "3"
            },
            "geometry": {
                "type": "Point",
                "coordinates": [
                    -0.24156,
                    35.75811
                ]
            }
        },
        {
            "type": "Feature",
            "properties": {
                "label": "Kendira",
                "id": "l295",
                "group": "ville",
                "value": "1"
            },
            "geometry": {
                "type": "Point",
                "coordinates": [
                    5.0265,
                    36.5428
                ]
            }
        },
        {
            "type": "Feature",
            "properties": {
                "label": "Sétif Béni Maouche",
                "id": "l231",
                "group": "ville",
                "value": "2"
            },
            "geometry": {
                "type": "Point",
                "coordinates": [
                    4.7878031775,
                    36.4971480847
                ]
            }
        },
        {
            "type": "Feature",
            "properties": {
                "label": "Temza",
                "id": "l245",
                "group": "ville",
                "value": "1"
            },
            "geometry": {
                "type": "Point",
                "coordinates": [
                    6.9976493,
                    35.2548742
                ]
            }
        },
        {
            "type": "Feature",
            "properties": {
                "label": "Sahari",
                "id": "l223",
                "group": "ville",
                "value": "1"
            },
            "geometry": {
                "type": "Point",
                "coordinates": [
                    1.8739,
                    35.1636
                ]
            }
        },
        {
            "type": "Feature",
            "properties": {
                "label": "Sour el Ghozlane (ex Aumale) (ex département d'Alger)",
                "id": "l240",
                "group": "ville",
                "value": "1"
            },
            "geometry": {
                "type": "Point",
                "coordinates": [
                    3.6909375,
                    36.1473049
                ]
            }
        },
        {
            "type": "Feature",
            "properties": {
                "label": "Hillil (L')",
                "id": "l160",
                "group": "ville",
                "value": "1"
            },
            "geometry": {
                "type": "Point",
                "coordinates": [
                    0.35126,
                    35.72011
                ]
            }
        },
        {
            "type": "Feature",
            "properties": {
                "label": "Dollfusville",
                "id": "l276",
                "group": "ville",
                "value": "1"
            },
            "geometry": {
                "type": "Point",
                "coordinates": [
                    2.50972,
                    36.19667
                ]
            }
        },
        {
            "type": "Feature",
            "properties": {
                "label": "*Cassaigne",
                "id": "l015",
                "group": "ville",
                "value": "3"
            },
            "geometry": {
                "type": "Point",
                "coordinates": [
                    0.4190568,
                    36.100133
                ]
            }
        },
        {
            "type": "Feature",
            "properties": {
                "label": "Pasteur",
                "id": "l213",
                "group": "ville",
                "value": "1"
            },
            "geometry": {
                "type": "Point",
                "coordinates": [
                    6.1864,
                    35.6917
                ]
            }
        },
        {
            "type": "Feature",
            "properties": {
                "label": "Chéragas (ex département d'Alger)",
                "id": "l123",
                "group": "ville",
                "value": "2"
            },
            "geometry": {
                "type": "Point",
                "coordinates": [
                    2.95924,
                    36.76775
                ]
            }
        },
        {
            "type": "Feature",
            "properties": {
                "label": "Saïda (ex département d'Oran)",
                "id": "l224",
                "group": "ville",
                "value": "6"
            },
            "geometry": {
                "type": "Point",
                "coordinates": [
                    0.15171,
                    34.83033
                ]
            }
        },
        {
            "type": "Feature",
            "properties": {
                "label": "Bérard",
                "id": "l090",
                "group": "ville",
                "value": "1"
            },
            "geometry": {
                "type": "Point",
                "coordinates": [
                    2.60926,
                    36.60293
                ]
            }
        },
        {
            "type": "Feature",
            "properties": {
                "label": "*Sidi Moussa",
                "id": "l046",
                "group": "ville",
                "value": "1"
            },
            "geometry": {
                "type": "Point",
                "coordinates": [
                    3.0899394,
                    36.6034933
                ]
            }
        },
        {
            "type": "Feature",
            "properties": {
                "label": "*Valmy (ex département d'Oran)",
                "id": "l051",
                "group": "ville",
                "value": "4"
            },
            "geometry": {
                "type": "Point",
                "coordinates": [
                    -0.57389,
                    35.60879
                ]
            }
        },
        {
            "type": "Feature",
            "properties": {
                "label": "Teblat",
                "id": "l283",
                "group": "ville",
                "value": "1"
            },
            "geometry": {
                "type": "Point",
                "coordinates": [
                    3.3098607,
                    36.4110137
                ]
            }
        },
        {
            "type": "Feature",
            "properties": {
                "label": "*Fort-de-l'Eau",
                "id": "l021",
                "group": "ville",
                "value": "1"
            },
            "geometry": {
                "type": "Point",
                "coordinates": [
                    3.19249,
                    36.74871
                ]
            }
        },
        {
            "type": "Feature",
            "properties": {
                "label": "Aït Mahmoud",
                "id": "l304",
                "group": "ville",
                "value": "1"
            },
            "geometry": {
                "type": "Point",
                "coordinates": [
                    3.9932,
                    36.5084
                ]
            }
        },
        {
            "type": "Feature",
            "properties": {
                "label": "*El Harrouch",
                "id": "l287",
                "group": "ville",
                "value": "1"
            },
            "geometry": {
                "type": "Point",
                "coordinates": [
                    6.8373144,
                    36.6530212
                ]
            }
        },
        {
            "type": "Feature",
            "properties": {
                "label": "*Bou Hanifia",
                "id": "l011",
                "group": "ville",
                "value": "2"
            },
            "geometry": {
                "type": "Point",
                "coordinates": [
                    -0.05037,
                    35.31473
                ]
            }
        },
        {
            "type": "Feature",
            "properties": {
                "label": "El Ouricia",
                "id": "l143",
                "group": "ville",
                "value": "3"
            },
            "geometry": {
                "type": "Point",
                "coordinates": [
                    5.4071775,
                    36.2824998
                ]
            }
        },
        {
            "type": "Feature",
            "properties": {
                "label": "Vialar",
                "id": "l257",
                "group": "ville",
                "value": "2"
            },
            "geometry": {
                "type": "Point",
                "coordinates": [
                    1.81081,
                    35.60722
                ]
            }
        },
        {
            "type": "Feature",
            "properties": {
                "label": "Fouka",
                "id": "l150",
                "group": "ville",
                "value": "3"
            },
            "geometry": {
                "type": "Point",
                "coordinates": [
                    2.7396838,
                    36.6612438
                ]
            }
        },
        {
            "type": "Feature",
            "properties": {
                "label": "*Bel-Abbès",
                "id": "l009",
                "group": "ville",
                "value": "1"
            },
            "geometry": {
                "type": "Point",
                "coordinates": [
                    1.65207,
                    36.23246
                ]
            }
        },
        {
            "type": "Feature",
            "properties": {
                "label": "Mascara",
                "id": "l183",
                "group": "ville",
                "value": "1"
            },
            "geometry": {
                "type": "Point",
                "coordinates": [
                    0.1467698,
                    35.3953325
                ]
            }
        },
        {
            "type": "Feature",
            "properties": {
                "label": "*Jemmapes",
                "id": "l265",
                "group": "ville",
                "value": "1"
            },
            "geometry": {
                "type": "Point",
                "coordinates": [
                    7.10528,
                    36.73944
                ]
            }
        },
        {
            "type": "Feature",
            "properties": {
                "label": "Sétif",
                "id": "l230",
                "group": "ville",
                "value": "17"
            },
            "geometry": {
                "type": "Point",
                "coordinates": [
                    5.4086808,
                    36.1853616
                ]
            }
        },
        {
            "type": "Feature",
            "properties": {
                "label": "Berrouaghia",
                "id": "l091",
                "group": "ville",
                "value": "10"
            },
            "geometry": {
                "type": "Point",
                "coordinates": [
                    2.9172805,
                    36.1322414
                ]
            }
        },
        {
            "type": "Feature",
            "properties": {
                "label": "Sidi Ali (ex Cassaigne)",
                "id": "l233",
                "group": "ville",
                "value": "3"
            },
            "geometry": {
                "type": "Point",
                "coordinates": [
                    0.4190568,
                    36.100133
                ]
            }
        },
        {
            "type": "Feature",
            "properties": {
                "label": "Ouled Fayet",
                "id": "l211",
                "group": "ville",
                "value": "5"
            },
            "geometry": {
                "type": "Point",
                "coordinates": [
                    2.9498,
                    36.7365
                ]
            }
        },
        {
            "type": "Feature",
            "properties": {
                "label": "La Sénia",
                "id": "l168",
                "group": "ville",
                "value": "1"
            },
            "geometry": {
                "type": "Point",
                "coordinates": [
                    -0.62397,
                    35.64779
                ]
            }
        },
        {
            "type": "Feature",
            "properties": {
                "label": "*Maison-Blanche",
                "id": "l028",
                "group": "ville",
                "value": "1"
            },
            "geometry": {
                "type": "Point",
                "coordinates": [
                    3.2148185,
                    36.7145399
                ]
            }
        },
        {
            "type": "Feature",
            "properties": {
                "label": "Laperrine",
                "id": "l172",
                "group": "ville",
                "value": "1"
            },
            "geometry": {
                "type": "Point",
                "coordinates": [
                    3.75877,
                    36.47641
                ]
            }
        },
        {
            "type": "Feature",
            "properties": {
                "label": "Aïn M'Lila",
                "id": "l065",
                "group": "ville",
                "value": "1"
            },
            "geometry": {
                "type": "Point",
                "coordinates": [
                    6.5739137,
                    36.0361284
                ]
            }
        },
        {
            "type": "Feature",
            "properties": {
                "label": "*Bou Tlelis",
                "id": "l012",
                "group": "ville",
                "value": "1"
            },
            "geometry": {
                "type": "Point",
                "coordinates": [
                    -0.8996,
                    35.57272
                ]
            }
        },
        {
            "type": "Feature",
            "properties": {
                "label": "El Halia",
                "id": "l279",
                "group": "ville",
                "value": "1"
            },
            "geometry": {
                "type": "Point",
                "coordinates": [
                    6.9106,
                    36.8686
                ]
            }
        },
        {
            "type": "Feature",
            "properties": {
                "label": "Orléansville",
                "id": "l200",
                "group": "ville",
                "value": "28"
            },
            "geometry": {
                "type": "Point",
                "coordinates": [
                    1.33452,
                    36.16525
                ]
            }
        },
        {
            "type": "Feature",
            "properties": {
                "label": "*Fleurus",
                "id": "l020",
                "group": "ville",
                "value": "1"
            },
            "geometry": {
                "type": "Point",
                "coordinates": [
                    -0.4428921,
                    35.7120023
                ]
            }
        },
        {
            "type": "Feature",
            "properties": {
                "label": "Borély la Sapie",
                "id": "l100",
                "group": "ville",
                "value": "2"
            },
            "geometry": {
                "type": "Point",
                "coordinates": [
                    2.5637,
                    36.23196
                ]
            }
        },
        {
            "type": "Feature",
            "properties": {
                "label": "Bou Saâda",
                "id": "l103",
                "group": "ville",
                "value": "2"
            },
            "geometry": {
                "type": "Point",
                "coordinates": [
                    4.17402,
                    35.20855
                ]
            }
        },
        {
            "type": "Feature",
            "properties": {
                "label": "*M'Sila",
                "id": "l027",
                "group": "ville",
                "value": "1"
            },
            "geometry": {
                "type": "Point",
                "coordinates": [
                    4.5314917,
                    35.7132288
                ]
            }
        },
        {
            "type": "Feature",
            "properties": {
                "label": "Chenoua (Le)",
                "id": "l122",
                "group": "ville",
                "value": "1"
            },
            "geometry": {
                "type": "Point",
                "coordinates": [
                    2.37177,
                    36.60627
                ]
            }
        },
        {
            "type": "Feature",
            "properties": {
                "label": "Tizi Ouzou (ex département d'Alger)",
                "id": "l250",
                "group": "ville",
                "value": "21"
            },
            "geometry": {
                "type": "Point",
                "coordinates": [
                    4.0457099,
                    36.7146024
                ]
            }
        },
        {
            "type": "Feature",
            "properties": {
                "label": "Robertville",
                "id": "l300",
                "group": "ville",
                "value": "1"
            },
            "geometry": {
                "type": "Point",
                "coordinates": [
                    6.8059,
                    36.7043
                ]
            }
        },
        {
            "type": "Feature",
            "properties": {
                "label": "Sétif",
                "id": "l328",
                "group": "ville",
                "value": "1"
            },
            "geometry": {
                "type": "Point",
                "coordinates": [
                    5.4086808,
                    36.1853616
                ]
            }
        },
        {
            "type": "Feature",
            "properties": {
                "label": "Guyotville (ex département d'Alger)",
                "id": "l155",
                "group": "ville",
                "value": "5"
            },
            "geometry": {
                "type": "Point",
                "coordinates": [
                    2.92185,
                    36.80277
                ]
            }
        },
        {
            "type": "Feature",
            "properties": {
                "label": "Damiette",
                "id": "l130",
                "group": "ville",
                "value": "1"
            },
            "geometry": {
                "type": "Point",
                "coordinates": [
                    2.78464,
                    36.26342
                ]
            }
        },
        {
            "type": "Feature",
            "properties": {
                "label": "Baba Hassen",
                "id": "l080",
                "group": "ville",
                "value": "1"
            },
            "geometry": {
                "type": "Point",
                "coordinates": [
                    2.9725,
                    36.69556
                ]
            }
        },
        {
            "type": "Feature",
            "properties": {
                "label": "Chanzy",
                "id": "l118",
                "group": "ville",
                "value": "1"
            },
            "geometry": {
                "type": "Point",
                "coordinates": [
                    -0.7193175,
                    34.9497529
                ]
            }
        },
        {
            "type": "Feature",
            "properties": {
                "label": "Affreville",
                "id": "l055",
                "group": "ville",
                "value": "16"
            },
            "geometry": {
                "type": "Point",
                "coordinates": [
                    2.22015,
                    36.26104
                ]
            }
        },
        {
            "type": "Feature",
            "properties": {
                "label": "Staouéli",
                "id": "l241",
                "group": "ville",
                "value": "5"
            },
            "geometry": {
                "type": "Point",
                "coordinates": [
                    2.8884581,
                    36.7533623
                ]
            }
        },
        {
            "type": "Feature",
            "properties": {
                "label": "*Saint-Ferdinand",
                "id": "l042",
                "group": "ville",
                "value": "1"
            },
            "geometry": {
                "type": "Point",
                "coordinates": [
                    2.91258,
                    36.70828
                ]
            }
        },
        {
            "type": "Feature",
            "properties": {
                "label": "*Sidi Chami",
                "id": "l045",
                "group": "ville",
                "value": "1"
            },
            "geometry": {
                "type": "Point",
                "coordinates": [
                    -0.5198427,
                    35.6626156
                ]
            }
        },
        {
            "type": "Feature",
            "properties": {
                "label": "Service central des rapatriés",
                "id": "A004",
                "group": "archives",
                "value": "27"
            },
            "geometry": {
                "type": "Point",
                "coordinates": [
                    2.3643561811,
                    48.9481947625
                ]
            }
        },
        {
            "type": "Feature",
            "properties": {
                "label": "Blida",
                "id": "l290",
                "group": "ville",
                "value": "1"
            },
            "geometry": {
                "type": "Point",
                "coordinates": [
                    2.8043767,
                    36.478974
                ]
            }
        },
        {
            "type": "Feature",
            "properties": {
                "label": "Bône",
                "id": "l315",
                "group": "ville",
                "value": "1"
            },
            "geometry": {
                "type": "Point",
                "coordinates": [
                    7.76667,
                    36.9
                ]
            }
        },
        {
            "type": "Feature",
            "properties": {
                "label": "El Achir - commune des Bibans",
                "id": "l278",
                "group": "ville",
                "value": "1"
            },
            "geometry": {
                "type": "Point",
                "coordinates": [
                    4.6274,
                    36.0639
                ]
            }
        },
        {
            "type": "Feature",
            "properties": {
                "label": "*Misserghin",
                "id": "l030",
                "group": "ville",
                "value": "3"
            },
            "geometry": {
                "type": "Point",
                "coordinates": [
                    -0.7356006,
                    35.6154571
                ]
            }
        },
        {
            "type": "Feature",
            "properties": {
                "label": "*Aïn el Turck",
                "id": "l002",
                "group": "ville",
                "value": "1"
            },
            "geometry": {
                "type": "Point",
                "coordinates": [
                    -0.7693,
                    35.74381
                ]
            }
        },
        {
            "type": "Feature",
            "properties": {
                "label": "Arcole-Valmy",
                "id": "l077",
                "group": "ville",
                "value": "2"
            },
            "geometry": {
                "type": "Point",
                "coordinates": [
                    -0.5403103,
                    35.7255421
                ]
            }
        },
        {
            "type": "Feature",
            "properties": {
                "label": "Arris",
                "id": "l078",
                "group": "ville",
                "value": "1"
            },
            "geometry": {
                "type": "Point",
                "coordinates": [
                    6.3465948,
                    35.2583565
                ]
            }
        },
        {
            "type": "Feature",
            "properties": {
                "label": "Bouïra",
                "id": "l109",
                "group": "ville",
                "value": "1"
            },
            "geometry": {
                "type": "Point",
                "coordinates": [
                    3.902805,
                    36.3737546
                ]
            }
        },
        {
            "type": "Feature",
            "properties": {
                "label": "Brazza",
                "id": "l111",
                "group": "ville",
                "value": "1"
            },
            "geometry": {
                "type": "Point",
                "coordinates": [
                    2.90107,
                    36.06968
                ]
            }
        },
        {
            "type": "Feature",
            "properties": {
                "label": "Mers-el-Kébir",
                "id": "l187",
                "group": "ville",
                "value": "4"
            },
            "geometry": {
                "type": "Point",
                "coordinates": [
                    -0.7069115,
                    35.7272989
                ]
            }
        },
        {
            "type": "Feature",
            "properties": {
                "label": "Tafna",
                "id": "l242",
                "group": "ville",
                "value": "1"
            },
            "geometry": {
                "type": "Point",
                "coordinates": [
                    -1.4343,
                    35.0929
                ]
            }
        },
        {
            "type": "Feature",
            "properties": {
                "label": "Dolfussville",
                "id": "l134",
                "group": "ville",
                "value": "2"
            },
            "geometry": {
                "type": "Point",
                "coordinates": [
                    2.5230413,
                    36.196937
                ]
            }
        },
        {
            "type": "Feature",
            "properties": {
                "label": "Fondouck",
                "id": "l145",
                "group": "ville",
                "value": "3"
            },
            "geometry": {
                "type": "Point",
                "coordinates": [
                    3.3308,
                    36.64997
                ]
            }
        },
        {
            "type": "Feature",
            "properties": {
                "label": "Fort-de-l'Eau",
                "id": "l147",
                "group": "ville",
                "value": "4"
            },
            "geometry": {
                "type": "Point",
                "coordinates": [
                    3.19249,
                    36.74871
                ]
            }
        },
        {
            "type": "Feature",
            "properties": {
                "label": "Beni Amrane (ex département de Constantine)",
                "id": "l086",
                "group": "ville",
                "value": "3"
            },
            "geometry": {
                "type": "Point",
                "coordinates": [
                    3.5880776,
                    36.6669977
                ]
            }
        },
        {
            "type": "Feature",
            "properties": {
                "label": "Berrouaghia",
                "id": "l271",
                "group": "ville",
                "value": "1"
            },
            "geometry": {
                "type": "Point",
                "coordinates": [
                    2.9172805,
                    36.1322414
                ]
            }
        },
        {
            "type": "Feature",
            "properties": {
                "label": "El Ançor",
                "id": "l140",
                "group": "ville",
                "value": "1"
            },
            "geometry": {
                "type": "Point",
                "coordinates": [
                    -0.8697378,
                    35.6860459
                ]
            }
        },
        {
            "type": "Feature",
            "properties": {
                "label": "*Arcole-Valmy",
                "id": "l005",
                "group": "ville",
                "value": "1"
            },
            "geometry": {
                "type": "Point",
                "coordinates": [
                    -0.5403103,
                    35.7255421
                ]
            }
        },
        {
            "type": "Feature",
            "properties": {
                "label": "Laghouat",
                "id": "l170",
                "group": "ville",
                "value": "5"
            },
            "geometry": {
                "type": "Point",
                "coordinates": [
                    2.86514,
                    33.8
                ]
            }
        },
        {
            "type": "Feature",
            "properties": {
                "label": "Mouzaïa-les-Mines",
                "id": "l195",
                "group": "ville",
                "value": "1"
            },
            "geometry": {
                "type": "Point",
                "coordinates": [
                    2.68858,
                    36.32356
                ]
            }
        },
        {
            "type": "Feature",
            "properties": {
                "label": "Archives du ministère des Affaires étrangères",
                "id": "A001",
                "group": "archives",
                "value": "1601"
            },
            "geometry": {
                "type": "Point",
                "coordinates": [
                    2.3881795369,
                    48.9235039805
                ]
            }
        },
        {
            "type": "Feature",
            "properties": {
                "label": "Haussonvillers",
                "id": "l159",
                "group": "ville",
                "value": "1"
            },
            "geometry": {
                "type": "Point",
                "coordinates": [
                    3.83163,
                    36.74625
                ]
            }
        },
        {
            "type": "Feature",
            "properties": {
                "label": "Cherchell",
                "id": "l124",
                "group": "ville",
                "value": "12"
            },
            "geometry": {
                "type": "Point",
                "coordinates": [
                    2.1821145,
                    36.6036858
                ]
            }
        },
        {
            "type": "Feature",
            "properties": {
                "label": "*Djelfa",
                "id": "l018",
                "group": "ville",
                "value": "2"
            },
            "geometry": {
                "type": "Point",
                "coordinates": [
                    3.2488908,
                    34.668632
                ]
            }
        },
        {
            "type": "Feature",
            "properties": {
                "label": "*Baraki",
                "id": "l008",
                "group": "ville",
                "value": "1"
            },
            "geometry": {
                "type": "Point",
                "coordinates": [
                    3.09606,
                    36.66655
                ]
            }
        },
        {
            "type": "Feature",
            "properties": {
                "label": "Oran",
                "id": "l299",
                "group": "ville",
                "value": "2"
            },
            "geometry": {
                "type": "Point",
                "coordinates": [
                    -0.63588,
                    35.69906
                ]
            }
        },
        {
            "type": "Feature",
            "properties": {
                "label": "Charron",
                "id": "l119",
                "group": "ville",
                "value": "6"
            },
            "geometry": {
                "type": "Point",
                "coordinates": [
                    1.12602,
                    36.06629
                ]
            }
        },
        {
            "type": "Feature",
            "properties": {
                "label": "*Bougie",
                "id": "l014",
                "group": "ville",
                "value": "2"
            },
            "geometry": {
                "type": "Point",
                "coordinates": [
                    5.08433,
                    36.75587
                ]
            }
        },
        {
            "type": "Feature",
            "properties": {
                "label": "*Perrégaux",
                "id": "l037",
                "group": "ville",
                "value": "1"
            },
            "geometry": {
                "type": "Point",
                "coordinates": [
                    0.06861,
                    35.58861
                ]
            }
        },
        {
            "type": "Feature",
            "properties": {
                "label": "Courbet",
                "id": "l128",
                "group": "ville",
                "value": "1"
            },
            "geometry": {
                "type": "Point",
                "coordinates": [
                    -0.61667,
                    35.71667
                ]
            }
        },
        {
            "type": "Feature",
            "properties": {
                "label": "Fontaine (La) (douar)",
                "id": "l146",
                "group": "ville",
                "value": "1"
            },
            "geometry": {
                "type": "Point",
                "coordinates": [
                    1.54697,
                    34.84218
                ]
            }
        },
        {
            "type": "Feature",
            "properties": {
                "label": "Ouled Aïssa",
                "id": "l324",
                "group": "ville",
                "value": "1"
            },
            "geometry": {
                "type": "Point",
                "coordinates": [
                    3.81431,
                    36.80666
                ]
            }
        },
        {
            "type": "Feature",
            "properties": {
                "label": "Aïn Sefra",
                "id": "l066",
                "group": "ville",
                "value": "1"
            },
            "geometry": {
                "type": "Point",
                "coordinates": [
                    -0.590542,
                    32.7552229
                ]
            }
        },
        {
            "type": "Feature",
            "properties": {
                "label": "Rouïna el Asnam",
                "id": "l326",
                "group": "ville",
                "value": "2"
            },
            "geometry": {
                "type": "Point",
                "coordinates": [
                    4.0103679,
                    36.3218684
                ]
            }
        },
        {
            "type": "Feature",
            "properties": {
                "label": "Ammi Moussa",
                "id": "l312",
                "group": "ville",
                "value": "1"
            },
            "geometry": {
                "type": "Point",
                "coordinates": [
                    1.1114,
                    35.8678
                ]
            }
        },
        {
            "type": "Feature",
            "properties": {
                "label": "Bou Sfer",
                "id": "l104",
                "group": "ville",
                "value": "1"
            },
            "geometry": {
                "type": "Point",
                "coordinates": [
                    -0.81239,
                    35.70167
                ]
            }
        },
        {
            "type": "Feature",
            "properties": {
                "label": "Djelida",
                "id": "l275",
                "group": "ville",
                "value": "1"
            },
            "geometry": {
                "type": "Point",
                "coordinates": [
                    2.0792,
                    36.2056
                ]
            }
        },
        {
            "type": "Feature",
            "properties": {
                "label": "Aïn Temouchent",
                "id": "l068",
                "group": "ville",
                "value": "5"
            },
            "geometry": {
                "type": "Point",
                "coordinates": [
                    -1.1399469,
                    35.2906474
                ]
            }
        },
        {
            "type": "Feature",
            "properties": {
                "label": "Boufarik",
                "id": "l291",
                "group": "ville",
                "value": "1"
            },
            "geometry": {
                "type": "Point",
                "coordinates": [
                    2.9085171,
                    36.5734496
                ]
            }
        },
        {
            "type": "Feature",
            "properties": {
                "label": "Beni Saf",
                "id": "l089",
                "group": "ville",
                "value": "4"
            },
            "geometry": {
                "type": "Point",
                "coordinates": [
                    -1.3787124,
                    35.2980775
                ]
            }
        },
        {
            "type": "Feature",
            "properties": {
                "label": "Valmy (ex département d'Oran)",
                "id": "l256",
                "group": "ville",
                "value": "7"
            },
            "geometry": {
                "type": "Point",
                "coordinates": [
                    -0.57389,
                    35.60879
                ]
            }
        },
        {
            "type": "Feature",
            "properties": {
                "label": "*Laghouat",
                "id": "l026",
                "group": "ville",
                "value": "1"
            },
            "geometry": {
                "type": "Point",
                "coordinates": [
                    2.86514,
                    33.8
                ]
            }
        },
        {
            "type": "Feature",
            "properties": {
                "label": "Oued Fedala - commune mixte dAïn Touta",
                "id": "l281",
                "group": "ville",
                "value": "1"
            },
            "geometry": {
                "type": "Point",
                "coordinates": [
                    5.84816,
                    35.29145
                ]
            }
        },
        {
            "type": "Feature",
            "properties": {
                "label": "Ain Kercha",
                "id": "l063",
                "group": "ville",
                "value": "1"
            },
            "geometry": {
                "type": "Point",
                "coordinates": [
                    6.694771,
                    35.9249957
                ]
            }
        },